City_ID,City,Lat,Lng,Max Temp,Humidity,Cloudiness,Wind Speed,Country,Date
0,maragogi,-9.0122,-35.2225,28.41,70,100,4.69,BR,1680890367
1,hobart,-42.8794,147.3294,14.59,87,100,0.51,AU,1680890338
2,birjand,32.8663,59.2211,18.26,24,40,4.12,IR,1680890368
3,vaini,-21.2,-175.2,25.09,100,75,2.06,TO,1680890368
4,port-gentil,-0.7193,8.7815,28.98,79,20,5.14,GA,1680890369
5,narsaq,60.9167,-46.05,0.9,63,34,2.25,GL,1680890369
6,dikson,73.5069,80.5464,-31.5,100,87,4.25,RU,1680890370
7,atuona,-9.8,-139.0333,26.92,72,66,8.75,PF,1680890370
8,meadow lake,34.8014,-106.5436,16.02,18,46,2.41,US,1680890371
9,solnechnyy,50.7214,136.6319,-3.04,89,100,2.46,RU,1680890371
10,jacareacanga,-6.2222,-57.7528,31.12,59,98,1.81,BR,1680890372
11,ushuaia,-54.8,-68.3,9.79,70,40,6.69,AR,1680890139
12,avarua,-21.2078,-159.775,27.03,78,40,4.12,CK,1680890373
13,albany,42.6001,-73.9662,8.23,42,99,3.13,US,1680890373
14,busayra,30.7376,35.6078,19.75,24,40,1.38,JO,1680890374
15,chinhoyi,-17.3667,30.2,20.94,55,59,1.99,ZW,1680890374
16,bukachacha,52.9833,116.9167,-8.73,92,97,0.22,RU,1680890375
17,busselton,-33.65,115.3333,13.49,75,49,5.36,AU,1680890363
18,watsa,3.0372,29.5355,21.15,76,70,0.43,CD,1680890376
19,klaksvik,62.2266,-6.589,7.51,86,36,8.58,FO,1680890376
20,falmouth,50.1544,-5.0711,11.5,78,94,4.91,GB,1680890378
21,rikitea,-23.1203,-134.9692,25.05,67,43,5.15,PF,1680890378
22,khatanga,71.9667,102.5,-20.54,98,100,6.09,RU,1680890379
23,sierra vista,31.5545,-110.3037,20.46,14,0,5.66,US,1680890379
24,east london,-33.0153,27.9116,21.52,78,40,5.66,ZA,1680890380
25,gimli,50.6336,-96.9907,-7.99,86,47,4.12,CA,1680890381
26,del rio,29.3627,-100.8968,14.06,91,100,4.12,US,1680890382
27,bathsheba,13.2167,-59.5167,30.34,62,40,11.83,BB,1680890383
28,kavieng,-2.5744,150.7967,27.12,81,99,5.47,PG,1680890383
29,qaanaaq,77.484,-69.3632,-23.23,72,0,2.32,GL,1680890384
30,saint-philippe,-21.3585,55.7679,25.77,86,91,4.46,RE,1680890384
31,bengkulu,-3.8004,102.2655,24.63,86,93,1.72,ID,1680890369
32,goldsboro,35.3849,-77.9928,11.95,100,100,8.23,US,1680890226
33,leningradskiy,69.3833,178.4167,-26.74,99,100,2.78,RU,1680890385
34,mataura,-46.1927,168.8643,3.19,97,10,1.28,NZ,1680890386
35,synya,65.3718,58.0387,-3.23,95,100,3.97,RU,1680890386
36,tanete,-3.9443,119.7848,24.37,91,100,1.31,ID,1680890387
37,saskylakh,71.9167,114.0833,-19.73,98,100,4.89,RU,1680890387
38,khromtau,50.2503,58.4347,1.35,76,100,8.87,KZ,1680890388
39,avera,33.194,-82.5271,29.03,50,57,2.82,US,1680890389
40,nikolskoye,59.7035,30.7861,5.94,94,31,2.18,RU,1680890389
41,arraial do cabo,-22.9661,-42.0278,29.98,74,75,5.66,BR,1680890390
42,muros,42.7762,-9.0603,18.94,46,90,0.43,ES,1680890390
43,diban,35.0365,40.5167,23.83,23,51,7.34,SY,1680890390
44,kurilsk,45.2333,147.8833,2.95,99,100,2.29,RU,1680890391
45,gryfino,53.2524,14.4883,6.47,98,100,2.54,PL,1680890391
46,paragominas,-2.9667,-47.4833,26.69,87,97,1.37,BR,1680890392
47,arona,28.0996,-16.681,17.29,73,20,3.09,ES,1680890393
48,chokurdakh,70.6333,147.9167,-30.88,100,67,1.28,RU,1680890394
49,stromness,58.965,-3.296,8.98,86,5,3.58,GB,1680890394
50,katsuura,35.1333,140.3,18.63,92,99,10.81,JP,1680890102
51,bambous virieux,-20.3428,57.7575,26.14,83,75,3.09,MU,1680890396
52,matara,5.9485,80.5353,25.23,85,47,2.95,LK,1680890396
53,porto belo,-27.1578,-48.5531,21.0,93,100,3.86,BR,1680890397
54,ponta do sol,32.6667,-17.1,19.51,68,26,2.24,PT,1680890399
55,lebu,-37.6167,-73.65,15.67,59,99,7.6,CL,1680890399
56,iqaluit,63.7506,-68.5145,-19.15,65,20,10.29,CA,1680890400
57,zhanaozen,43.3,52.8,12.02,72,100,8.12,KZ,1680890400
58,cape town,-33.9258,18.4232,16.17,85,75,5.14,ZA,1680890394
59,paka,4.6374,103.4368,25.97,83,70,0.89,MY,1680890401
60,isangel,-19.55,169.2667,24.94,75,0,0.22,VU,1680890404
61,cabo san lucas,22.8909,-109.9124,28.43,33,0,1.79,MX,1680890405
62,pisco,-13.7,-76.2167,25.01,79,12,4.25,PE,1680890406
63,bitung,1.4451,125.1824,25.47,87,87,2.63,ID,1680890406
64,saint-georges,12.0564,-61.7485,26.51,72,99,8.24,GD,1680890409
65,dukat,62.55,155.55,-22.36,100,90,1.56,RU,1680890410
66,bardiyah,31.7561,25.0865,15.06,63,55,4.23,LY,1680890410
67,itamarandiba,-17.8572,-42.8589,26.01,54,85,2.5,BR,1680890411
68,barahona,18.2085,-71.1008,27.87,55,10,5.0,DO,1680890411
69,laguna,38.421,-121.4238,14.56,77,100,1.34,US,1680890412
70,port alfred,-33.5906,26.891,19.54,79,47,2.24,ZA,1680890412
71,punta arenas,-53.15,-70.9167,5.48,90,86,7.89,CL,1680890413
72,den helder,52.9599,4.7593,9.45,91,100,3.58,NL,1680890413
73,hilo,19.7297,-155.09,23.49,87,100,3.09,US,1680890414
74,holme,56.1138,10.1725,6.76,69,83,4.08,DK,1680890414
75,hofn,64.2539,-15.2082,7.18,84,100,8.87,IS,1680890416
76,seymchan,62.8833,152.4333,-20.82,100,96,0.56,RU,1680890416
77,kavaratti,10.5669,72.642,28.21,74,9,3.01,IN,1680890417
78,esperance,-33.8667,121.9,15.83,69,95,5.43,AU,1680890410
79,dingle,10.9995,122.6711,22.92,85,40,2.03,PH,1680890418
80,tasiilaq,65.6145,-37.6368,0.09,91,100,15.13,GL,1680890418
81,kodiak,57.79,-152.4072,-2.17,75,100,2.05,US,1680890419
82,bluff,-46.6,168.3333,7.23,85,26,3.26,NZ,1680890419
83,charters towers,-20.1,146.2667,24.6,81,82,3.31,AU,1680890420
84,yar-sale,66.8333,70.8333,-3.96,87,100,9.9,RU,1680890421
85,thunder bay,48.4001,-89.3168,-1.15,84,98,1.39,CA,1680890421
86,mar del plata,-38.0023,-57.5575,24.9,82,18,4.92,AR,1680890422
87,carnarvon,-24.8667,113.6333,21.52,58,0,5.7,AU,1680890423
88,tiksi,71.6872,128.8694,-24.96,100,91,1.8,RU,1680890423
89,bethel,41.3712,-73.414,13.63,27,78,1.79,US,1680890424
90,faanui,-16.4833,-151.75,28.64,76,89,9.03,PF,1680890424
91,chernyshevskiy,63.0128,112.4714,-29.69,99,48,1.89,RU,1680890425
92,pevek,69.7008,170.3133,-31.4,98,77,1.72,RU,1680890425
93,hami,42.8,93.45,11.65,11,82,1.68,CN,1680890384
94,tuatapere,-46.1333,167.6833,5.25,91,18,2.26,NZ,1680890426
95,deputatskiy,69.3,139.9,-28.66,100,100,0.83,RU,1680890427
96,souillac,-20.5167,57.5167,25.42,81,46,2.9,MU,1680890427
97,puerto ayora,-0.7393,-90.3518,28.64,87,86,3.13,EC,1680890428
98,fare,-16.7,-151.0167,28.21,78,95,7.78,PF,1680890428
99,balabac,7.9868,117.0645,26.82,76,6,4.4,PH,1680890429
100,jeremie,18.65,-74.1167,26.4,65,24,2.51,HT,1680890430
101,constitucion,-35.3333,-72.4167,21.08,45,87,6.11,CL,1680890430
102,namatanai,-3.6667,152.4333,25.42,86,96,1.02,PG,1680890431
103,kruisfontein,-34.0033,24.7314,16.6,87,5,4.83,ZA,1680890432
104,castro,-24.7911,-50.0119,20.75,81,94,1.51,BR,1680890432
105,roma,43.2128,-75.4557,5.96,47,0,8.75,US,1680890433
106,provideniya,64.3833,-173.3,-25.73,96,77,1.82,RU,1680890433
107,geraldton,-28.7667,114.6,16.23,72,40,4.12,AU,1680890434
108,okhotsk,59.3833,143.3,-17.61,86,100,3.69,RU,1680890435
109,burla,21.5,83.8667,27.79,33,37,1.51,IN,1680890435
110,georgetown,5.4112,100.3354,28.96,83,20,3.6,MY,1680890320
111,itaituba,-4.2761,-55.9836,27.32,83,98,1.3,BR,1680890436
112,kirakira,-10.4544,161.9205,26.21,83,49,1.1,SB,1680890436
113,amahai,-3.3333,128.9167,25.31,85,93,1.76,ID,1680890437
114,jamestown,42.097,-79.2353,6.96,52,91,1.79,US,1680890437
115,kedrovyy,56.1667,91.8167,-7.77,79,100,3.97,RU,1680890438
116,kemin,42.7846,75.6892,5.92,95,100,1.41,KG,1680890438
117,bani walid,31.7566,13.9942,13.33,67,100,8.17,LY,1680890439
118,boyuibe,-20.4167,-63.2833,26.13,46,59,3.34,BO,1680890439
119,tilichiki,60.4667,166.1,-21.13,100,35,1.47,RU,1680890440
120,port keats,-14.25,129.55,25.95,84,100,1.77,AU,1680890440
121,oranjemund,-28.55,16.4333,16.08,85,3,4.6,NA,1680890413
122,klamath falls,42.2249,-121.7817,9.92,65,94,2.24,US,1680890441
123,rawson,-43.3002,-65.1023,14.55,43,100,4.84,AR,1680890442
124,pasni,25.2631,63.471,24.41,73,0,2.88,PK,1680890442
125,tazovskiy,67.4667,78.7,-9.48,96,100,2.12,RU,1680890443
126,kapaa,22.0752,-159.319,22.88,88,91,0.89,US,1680890443
127,fallon,39.4735,-118.7774,11.73,40,100,1.34,US,1680890444
128,harper,4.375,-7.7169,28.07,77,95,3.11,LR,1680890444
129,hasaki,35.7333,140.8333,19.22,92,100,14.68,JP,1680890211
130,lorengau,-2.0226,147.2712,25.7,88,100,4.11,PG,1680890446
131,ino,33.55,133.4333,9.23,83,4,2.77,JP,1680890447
132,copiapo,-27.3667,-70.3333,29.12,30,0,4.04,CL,1680890447
133,bonavista,48.6499,-53.1147,1.89,92,100,5.34,CA,1680890448
134,volchikha,52.0333,80.3833,-1.56,82,100,7.06,RU,1680890448
135,san jose de guanipa,8.8872,-64.1651,34.37,26,90,6.18,VE,1680890449
136,cidreira,-30.1811,-50.2056,20.56,79,100,3.38,BR,1680890449
137,longyearbyen,78.2186,15.6401,-8.09,79,75,8.75,SJ,1680890450
138,adrar,20.5022,-10.0711,30.14,10,80,2.37,MR,1680890450
139,beringovskiy,63.05,179.3167,-19.78,99,100,2.19,RU,1680890451
140,yellowknife,62.456,-114.3525,0.59,98,99,6.8,CA,1680890452
141,chapais,49.7834,-74.8492,-8.12,78,100,7.46,CA,1680890452
142,hermanus,-34.4187,19.2345,14.33,79,100,3.04,ZA,1680890453
143,gniezno,52.5348,17.5826,8.17,96,100,1.12,PL,1680890453
144,satun,6.8333,100.0,25.0,91,10,1.37,TH,1680890396
145,bima,-8.4667,118.7167,23.9,95,100,1.34,ID,1680890454
146,kahului,20.8947,-156.47,24.36,79,58,4.92,US,1680890455
147,hithadhoo,-0.6,73.0833,28.1,64,12,1.13,MV,1680890455
148,bintulu,3.1667,113.0333,23.03,90,79,1.56,MY,1680890455
149,tuktoyaktuk,69.4541,-133.0374,-11.73,96,100,7.4,CA,1680890456
150,buala,-8.145,159.5921,25.87,84,86,0.94,SB,1680890456
151,lagoa,39.05,-27.9833,12.21,65,17,6.49,PT,1680890457
152,puyo,-1.4667,-77.9833,22.94,87,95,1.18,EC,1680890458
153,port elizabeth,-33.918,25.5701,18.51,79,14,1.79,ZA,1680890411
154,port lincoln,-34.7333,135.8667,16.82,77,89,7.53,AU,1680890459
155,luderitz,-26.6481,15.1594,16.92,76,0,7.49,NA,1680890419
156,kumluca,36.3703,30.2869,14.31,62,14,2.7,TR,1680890460
157,champerico,14.3,-91.9167,30.45,60,6,5.1,GT,1680890461
158,cherskiy,68.75,161.3,-26.42,100,100,1.9,RU,1680890461
159,victoria,22.2855,114.1577,22.33,82,82,5.71,HK,1680890443
160,rocha,-34.4833,-54.3333,22.97,50,99,3.97,UY,1680890464
161,kalmunai,7.4167,81.8167,26.6,69,34,2.15,LK,1680890464
162,batticaloa,7.7102,81.6924,26.99,68,32,3.0,LK,1680890465
163,barrow,71.2906,-156.7887,-20.99,71,100,3.09,US,1680890465
164,myskhako,44.6714,37.7433,8.88,90,100,2.68,RU,1680890466
165,upernavik,72.7868,-56.1549,-25.14,94,94,5.66,GL,1680890466
166,gat,31.61,34.7642,23.0,34,67,1.25,IL,1680890192
167,margate,51.3813,1.3862,10.49,76,6,1.34,GB,1680890467
168,fort dodge,42.4975,-94.168,17.0,23,0,9.26,US,1680890469
169,rio grande,-32.035,-52.0986,26.06,60,50,5.17,BR,1680890193
170,ribeira grande,38.5167,-28.7,14.32,58,20,5.66,PT,1680890470
171,new norfolk,-42.7826,147.0587,14.4,75,100,1.34,AU,1680890470
172,vilyuysk,63.7553,121.6247,-3.64,94,100,3.44,RU,1680890471
173,okha,53.5739,142.9478,-3.29,86,100,7.97,RU,1680890471
174,vardo,70.3705,31.1107,2.99,81,100,4.63,NO,1680890472
175,norman wells,65.282,-126.8329,-8.62,90,100,4.92,CA,1680890473
176,nuevo progreso,23.1667,-97.95,22.48,60,99,1.34,MX,1680890473
177,prince rupert,54.3161,-130.3201,5.05,93,100,3.6,CA,1680890474
178,colon,9.3592,-79.9014,28.98,63,78,4.93,PA,1680890475
179,goksun,38.021,36.4973,2.84,100,100,1.65,TR,1680890475
180,vegreville,53.5001,-112.0518,0.42,93,17,7.0,CA,1680890476
181,boa viagem,-5.1275,-39.7322,28.07,67,92,2.18,BR,1680890477
182,butaritari,3.0707,172.7902,27.54,80,100,8.47,KI,1680890477
183,ust-nera,64.5667,143.2,-27.13,98,48,1.12,RU,1680890478
184,thompson,55.7435,-97.8558,-0.37,100,67,3.77,CA,1680890478
185,tual,-5.6667,132.75,27.4,78,86,7.66,ID,1680890479
186,petropavlovsk-kamchatskiy,53.0452,158.6483,-0.67,86,100,1.0,RU,1680890185
187,esna,25.2934,32.554,28.77,8,1,4.86,EG,1680890480
188,korla,41.7597,86.1469,9.29,18,6,3.52,CN,1680890481
189,chuy,-33.6971,-53.4616,22.71,55,99,4.17,UY,1680890481
190,rio gallegos,-51.6226,-69.2181,13.07,33,13,15.97,AR,1680890470
191,hobyo,5.3505,48.5268,28.11,67,14,6.45,SO,1680890482
192,kuala terengganu,5.3302,103.1408,26.72,80,39,0.91,MY,1680890406
193,samarai,-10.6167,150.6667,27.95,78,100,2.86,PG,1680890483
194,pangody,65.85,74.4859,-5.79,94,100,10.28,RU,1680890483
195,melo,-32.3667,-54.1833,25.6,33,56,4.19,UY,1680890484
196,talnakh,69.4865,88.3972,-33.83,99,94,2.71,RU,1680890484
197,tateyama,34.9833,139.8667,17.8,82,83,10.22,JP,1680890400
198,port hardy,50.6996,-127.4199,7.09,82,92,3.44,CA,1680890485
199,san quintin,30.4833,-115.95,17.6,52,78,4.03,MX,1680890486
200,kibakwe,-6.7167,36.3667,18.18,92,29,1.86,TZ,1680890486
201,asau,46.4333,26.4,2.51,100,100,0.98,RO,1680890487
202,russell,32.3502,-85.1999,27.45,59,99,1.98,US,1680890487
203,alofi,-19.0595,-169.9187,27.04,75,47,6.97,NU,1680890488
204,bolshaya sosnova,57.6713,54.6029,-2.32,67,1,1.87,RU,1680890489
205,richards bay,-28.783,32.0377,21.22,92,0,2.68,ZA,1680890281
206,whitehorse,60.7161,-135.0538,0.02,87,14,1.64,CA,1680890490
207,yarmouth,41.7057,-70.2286,15.9,47,0,5.66,US,1680890490
208,malpe,13.35,74.7167,27.61,83,16,1.8,IN,1680890491
209,burgeo,47.6167,-57.6152,1.62,96,95,10.19,CA,1680890491
210,namibe,-15.1961,12.1522,24.21,80,92,3.66,AO,1680890492
211,yerbogachen,61.2767,108.0108,-22.36,94,41,3.35,RU,1680890492
212,truth or consequences,33.1284,-107.2528,17.73,16,0,3.6,US,1680890493
213,la paz,-16.5,-68.15,13.65,47,100,2.68,BO,1680890493
214,saint-pierre,-21.3393,55.4781,25.82,78,0,4.12,RE,1680890494
215,bredasdorp,-34.5322,20.0403,15.8,75,100,2.26,ZA,1680890494
216,shiyan,32.6475,110.7781,12.58,53,100,0.98,CN,1680890495
217,majene,-3.5403,118.9707,25.42,80,100,1.99,ID,1680890257
218,nueva guinea,11.6876,-84.4562,31.88,41,100,6.76,NI,1680890496
219,koslan,63.4564,48.8989,-5.55,96,58,2.26,RU,1680890496
220,yining,29.0361,114.5636,12.6,71,94,0.4,CN,1680890497
221,pashiya,58.4324,58.2562,-5.72,85,20,0.9,RU,1680890497
222,dudinka,69.4058,86.1778,-30.37,100,98,2.21,RU,1680890498
223,labuhan,-6.8844,112.2051,25.29,84,100,3.2,ID,1680890498
224,saint george,37.1041,-113.5841,16.35,23,0,2.57,US,1680890499
225,clyde river,70.4692,-68.5914,-20.68,83,94,2.91,CA,1680890499
226,torbay,47.6666,-52.7314,7.09,80,75,10.29,CA,1680890347
227,martaban,16.5314,97.6111,27.2,76,86,2.56,MM,1680890501
228,zhicheng,30.2956,111.5047,13.72,58,80,0.66,CN,1680890501
229,ogre,56.8162,24.614,12.58,78,56,1.99,LV,1680890502
230,huarmey,-10.0681,-78.1522,27.05,69,100,3.55,PE,1680890502
231,kribi,2.95,9.9167,27.28,81,96,3.36,CM,1680890502
232,arman,59.7,150.1667,-17.61,98,89,2.73,RU,1680890503
233,gorontalo,0.5412,123.0595,24.21,94,85,1.98,ID,1680890503
234,amga,60.8953,131.9608,-11.41,84,81,3.49,RU,1680890504
235,vila velha,-20.3297,-40.2925,27.75,81,35,0.45,BR,1680890504
236,bubaque,11.2833,-15.8333,25.36,71,29,6.35,GW,1680890506
237,san patricio,28.017,-97.5169,17.16,88,100,6.58,US,1680890506
238,conde,-7.2597,-34.9075,28.61,66,69,5.47,BR,1680890507
239,pimentel,-6.8367,-79.9342,28.57,65,100,3.37,PE,1680890507
240,sosva,59.1766,61.8558,-4.47,45,61,2.5,RU,1680890508
241,kamenka,51.3223,42.7678,11.72,55,98,5.22,RU,1680890508
242,kaeo,-35.1,173.7833,15.74,83,99,3.96,NZ,1680890509
243,fairbanks,64.8378,-147.7164,-13.21,75,94,0.52,US,1680890509
244,anqiu,36.4342,119.1925,7.69,36,0,5.35,CN,1680890510
245,lasa,46.6166,10.7002,5.23,93,100,0.89,IT,1680890510
246,etaples,50.5219,1.6332,11.93,58,0,3.6,FR,1680890511
247,homer,59.6425,-151.5483,-2.35,51,100,2.86,US,1680890511
248,itoman,26.1247,127.6694,19.01,72,100,10.29,JP,1680890438
249,ferzikovo,54.5191,36.7567,7.8,64,16,3.53,RU,1680890512
250,viedma,-40.8135,-62.9967,18.79,49,100,7.44,AR,1680890513
251,boguchany,58.3814,97.4531,-13.41,76,93,4.41,RU,1680890514
252,eyrarbakki,63.863,-21.1481,7.19,89,100,19.56,IS,1680890514
253,ilulissat,69.2167,-51.1,-6.99,49,20,4.12,GL,1680890515
254,lokosovo,61.1333,74.8167,-12.83,84,49,6.1,RU,1680890515
255,qinzhou,21.95,108.6167,22.98,72,76,1.67,CN,1680890516
256,high rock,26.6208,-78.2833,25.39,64,56,6.29,BS,1680890516
257,galle,6.0367,80.217,25.84,83,16,4.02,LK,1680890517
258,xinmin,41.9908,122.8253,2.08,21,1,3.69,CN,1680890517
259,chabua,27.4825,95.1736,20.78,62,15,1.59,IN,1680890518
260,kushima,31.4583,131.2333,13.35,77,0,5.13,JP,1680890518
261,ahuimanu,21.4447,-157.8378,24.55,79,71,2.68,US,1680890519
262,veraval,20.9,70.3667,26.65,64,40,5.25,IN,1680890519
263,portland,45.5234,-122.6762,12.57,88,100,3.13,US,1680890240
264,ancud,-41.8697,-73.8203,14.32,66,90,2.09,CL,1680890520
265,sao joao da barra,-21.6403,-41.0511,26.21,76,36,4.81,BR,1680890522
266,arawa,-6.2132,155.5367,24.44,88,93,1.34,PG,1680890523
267,vostok,46.4856,135.8833,-5.66,83,70,1.27,RU,1680890523
268,mahebourg,-20.4081,57.7,25.14,77,50,3.11,MU,1680890523
269,kokopo,-4.352,152.2633,24.81,86,95,1.95,PG,1680890524
270,nizhniy kuranakh,58.8353,125.4869,-10.63,85,99,2.87,RU,1680890525
271,tingi,-11.3,35.0333,17.14,96,97,1.43,TZ,1680890525
272,paso de carrasco,-34.8603,-56.0522,21.08,67,93,3.28,UY,1680890525
273,kitgum,3.2783,32.8867,24.98,57,100,0.29,UG,1680890526
274,cividale del friuli,46.0931,13.4275,12.21,33,100,0.1,IT,1680890526
275,labuan,5.2767,115.2417,26.13,80,93,1.35,MY,1680890527
276,mount gambier,-37.8333,140.7667,14.15,85,98,5.23,AU,1680890527
277,sao filipe,14.8961,-24.4956,22.48,78,67,4.82,CV,1680890528
278,ambon,-3.6954,128.1814,24.08,94,20,1.54,ID,1680890528
279,soyo,-6.1349,12.3689,27.14,82,100,3.2,AO,1680890529
280,kaitangata,-46.2817,169.8464,4.66,91,10,1.4,NZ,1680890529
281,vestmannaeyjar,63.4427,-20.2734,7.55,100,100,19.55,IS,1680890531
282,praia,14.9215,-23.5087,25.3,61,20,8.75,CV,1680890532
283,shenjiamen,29.9576,122.298,10.89,75,45,5.7,CN,1680890532
284,pacific grove,36.6177,-121.9166,14.12,80,100,5.81,US,1680890533
285,hurghada,27.2574,33.8129,25.24,24,0,2.23,EG,1680890533
286,saint-augustin,51.226,-58.6502,3.52,47,89,7.9,CA,1680890534
287,paoua,7.2427,16.4406,31.74,24,59,2.31,CF,1680890535
288,cheyenne,41.14,-104.8203,12.15,26,0,4.92,US,1680890535
289,taltal,-25.4,-70.4833,21.88,71,13,2.41,CL,1680890536
290,khandyga,62.6667,135.6,-24.66,89,32,2.25,RU,1680890536
291,troitsko-pechorsk,62.7084,56.1964,-6.94,93,95,2.58,RU,1680890537
292,ilebo,-4.3167,20.5833,25.79,69,96,0.69,CD,1680890537
293,kindu,-2.95,25.95,23.44,76,83,1.62,CD,1680890538
294,wote,-1.7808,37.6288,19.29,88,35,0.35,KE,1680890538
295,parambu,-6.2111,-40.6944,28.28,59,98,1.93,BR,1680890539
296,baculin,7.4525,126.5842,24.81,86,98,3.08,PH,1680890539
297,panama city,8.9936,-79.5197,32.85,51,59,0.45,PA,1680890540
298,nuuk,64.1835,-51.7216,0.34,80,20,5.66,GL,1680890540
299,kimparana,12.8347,-4.9244,34.5,32,94,2.26,ML,1680890541
300,shirokiy,49.758,129.523,-0.32,72,94,5.78,RU,1680890541
301,saint-leu,-21.15,55.2833,25.48,95,90,3.25,RE,1680890542
302,riyadh,24.6877,46.7219,29.08,17,60,4.62,SA,1680889906
303,coquimbo,-29.9533,-71.3436,20.49,68,4,2.52,CL,1680890542
304,simbahan,6.3032,120.5836,27.36,77,11,6.65,PH,1680890543
305,nome,64.5011,-165.4064,-27.96,91,75,0.0,US,1680890404
306,akhmim,26.5622,31.745,29.32,10,0,2.67,EG,1680890544
307,tra vinh,9.9347,106.3453,25.85,80,18,2.2,VN,1680890404
308,buin,-33.7333,-70.75,28.4,12,100,2.57,CL,1680890517
309,mehamn,71.0357,27.8492,2.97,75,100,4.12,NO,1680890545
310,las palmas,28.4204,-14.0131,20.44,49,20,6.17,ES,1680890546
311,vega de alatorre,20.0333,-96.6333,22.45,81,86,6.64,MX,1680890546
312,manta,-0.95,-80.7333,24.67,89,100,2.34,EC,1680890547
313,conceicao do araguaia,-8.2578,-49.2647,26.33,78,100,2.06,BR,1680890547
314,hovd,48.0056,91.6419,3.6,26,84,4.24,MN,1680890548
315,ucluelet,48.9329,-125.5528,8.38,91,97,1.82,CA,1680890549
316,kota kinabalu,5.9749,116.0724,24.99,88,20,2.68,MY,1680890528
317,takoradi,4.8845,-1.7554,28.27,77,100,5.44,GH,1680890552
318,ende,-8.8432,121.6623,25.36,86,100,1.43,ID,1680890552
319,nanortalik,60.1432,-45.2371,-0.09,82,34,6.36,GL,1680890553
320,lagos,6.5833,3.75,27.76,79,100,2.9,NG,1680890553
321,singkang,2.1006,102.7994,24.0,95,86,0.99,MY,1680890554
322,opuwo,-18.0607,13.84,25.57,39,100,4.79,NA,1680890554
323,sinnamary,5.3833,-52.95,27.14,64,87,4.38,GF,1680890554
324,papara,-3.9839,-38.7273,25.94,83,95,2.79,BR,1680890555
325,fortuna,40.5982,-124.1573,11.07,93,100,1.79,US,1680890555
326,moron,-34.6534,-58.6198,26.64,57,2,3.18,AR,1680890556
327,bocaiuva,-17.1078,-43.815,29.16,43,62,2.77,BR,1680890556
328,inuvik,68.3499,-133.7218,-15.58,78,100,5.66,CA,1680890557
329,berlevag,70.8578,29.0864,3.0,75,100,4.63,NO,1680890557
330,airai,-8.9266,125.4092,14.83,85,100,0.83,TL,1680890558
331,navahrudak,53.6,25.8333,6.84,90,100,2.51,BY,1680890558
332,gashua,12.871,11.0482,34.86,10,97,3.69,NG,1680890559
333,drochia,48.035,27.8161,4.02,93,100,0.42,MD,1680890559
334,peshkovo,47.0187,39.3885,14.38,82,96,3.15,RU,1680890560
335,xuanhua,40.6103,115.0447,4.4,36,0,2.41,CN,1680890560
336,oxford,51.7522,-1.256,13.09,47,0,2.06,GB,1680890561
337,la orilla,17.9833,-102.2333,29.61,44,0,4.05,MX,1680890561
338,acapulco,16.8634,-99.8901,30.6,46,1,3.45,MX,1680890562
339,troutdale,45.5393,-122.3873,12.19,88,100,3.13,US,1680890562
340,doka,13.5167,35.7667,32.79,13,38,6.44,SD,1680890563
341,aklavik,68.2191,-135.0107,-14.37,93,100,7.07,CA,1680890563
342,polaniec,50.4332,21.2812,4.39,83,100,0.45,PL,1680890563
343,guerrero negro,27.9769,-114.0611,19.83,40,7,5.19,MX,1680890564
344,zhigansk,66.7697,123.3711,-8.7,92,100,11.45,RU,1680890564
345,waipawa,-41.4122,175.5153,10.88,63,100,3.68,NZ,1680890565
346,griffith,41.5284,-87.4237,14.06,42,0,7.72,US,1680890565
347,kysyl-syr,63.8986,122.7617,-3.83,96,100,5.23,RU,1680890566
348,oron,4.8256,8.2343,27.59,77,87,3.52,NG,1680890566
349,simao,22.7886,100.9748,18.52,35,4,0.89,CN,1680890306
350,kemijarvi,66.7131,27.4306,1.37,99,100,5.1,FI,1680890567
351,skibbereen,51.55,-9.2667,10.62,88,98,6.45,IE,1680890568
352,bandarbeyla,9.4942,50.8122,27.43,66,33,4.12,SO,1680890568
353,manaure,11.7751,-72.4445,28.91,64,37,6.67,CO,1680890569
354,dalbandin,28.8947,64.4101,25.46,16,38,2.04,PK,1680890569
355,mikhaylovka,50.06,43.2379,12.1,55,95,6.97,RU,1680890570
356,pietarsaari,63.65,22.6833,2.07,97,95,2.84,FI,1680890570
357,syracuse,37.0881,15.2792,12.65,68,89,2.26,IT,1680890571
358,half moon bay,37.4636,-122.4286,15.3,86,75,6.69,US,1680890571
359,tiznit,29.5833,-9.5,20.78,46,2,2.48,MA,1680890572
360,padang,-0.9492,100.3543,25.03,88,88,1.41,ID,1680890573
361,concepcion del uruguay,-32.4825,-58.2372,26.81,53,2,0.45,AR,1680890573
362,los llanos de aridane,28.6585,-17.9182,17.86,70,75,2.68,ES,1680890574
363,killybegs,54.6333,-8.45,13.84,69,100,5.76,IE,1680890575
364,pangnirtung,66.1451,-65.7125,-15.14,81,26,1.91,CA,1680890575
365,severo-kurilsk,50.6789,156.125,0.34,97,100,10.31,RU,1680890576
366,wanning,18.8003,110.3967,23.02,95,100,3.68,CN,1680890576
367,quatre cocos,-20.2078,57.7625,25.05,77,45,3.14,MU,1680890576
368,kudahuvadhoo,2.6708,72.8944,27.88,68,53,1.32,MV,1680890577
369,awbari,26.5921,12.7805,26.24,23,63,6.29,LY,1680890577
370,scottsbluff,41.8666,-103.6672,15.99,27,0,1.54,US,1680890578
371,tommot,58.9564,126.2925,-17.37,95,93,1.79,RU,1680890578
372,wallasey,53.4232,-3.065,12.82,43,0,2.57,GB,1680890579
373,uinskoye,56.8817,56.5813,-2.61,70,1,1.38,RU,1680890579
374,krasnyy luch,48.1395,38.9371,10.66,75,98,3.09,UA,1680890343
375,strezhevoy,60.7333,77.5889,-16.14,91,50,4.6,RU,1680890580
376,wamba,8.9333,8.6,32.05,36,93,1.06,NG,1680890581
377,saint-louis,16.3333,-15.0,36.17,10,77,4.73,SN,1680890581
378,batagay,67.6333,134.6333,-25.95,91,12,2.96,RU,1680890582
379,carney,39.3943,-76.5236,13.44,33,75,4.63,US,1680890583
380,nkan,0.3833,9.7833,25.36,90,66,1.91,GA,1680890583
381,abu dhabi,24.4667,54.3667,26.08,82,2,3.83,AE,1680890413
382,uspenka,48.3903,39.1619,11.81,71,95,1.76,UA,1680890586
383,havoysund,70.9963,24.6622,3.13,97,100,4.38,NO,1680890586
384,fort-shevchenko,44.5086,50.263,10.65,83,100,3.5,KZ,1680890587
385,waingapu,-9.6567,120.2641,25.18,86,100,2.35,ID,1680890587
386,teahupoo,-17.8333,-149.2667,23.98,78,100,8.74,PF,1680890588
387,ryde,50.73,-1.1621,12.32,72,9,1.34,GB,1680890589
388,red bluff,40.1785,-122.2358,12.38,87,100,7.2,US,1680890589
389,adiake,5.2863,-3.304,27.85,77,91,4.65,CI,1680890591
390,zawiercie,50.4877,19.4168,3.44,96,100,0.83,PL,1680890592
391,katobu,-4.9408,122.5276,23.87,89,65,1.52,ID,1680890593
392,nemuro,43.3236,145.575,3.21,100,100,2.72,JP,1680890595
393,touros,-5.1989,-35.4608,28.75,70,77,5.2,BR,1680890595
394,villanueva de la serena,38.9766,-5.7974,21.8,27,9,3.2,ES,1680890596
395,brae,60.3964,-1.353,7.37,88,69,5.33,GB,1680890596
396,senneterre,48.3835,-77.2328,-4.64,75,100,6.3,CA,1680890598
397,sola,-13.8833,167.55,27.55,75,49,2.09,VU,1680890599
398,cabedelo,-6.9811,-34.8339,28.34,71,49,5.17,BR,1680890538
399,pahrump,36.2083,-115.9839,18.47,18,100,3.58,US,1680890600
400,vestmanna,62.1564,-7.1664,6.51,76,48,6.69,FO,1680890600
401,plakhtiyivka,46.1006,29.7217,6.4,89,88,2.75,UA,1680890601
402,nha trang,12.25,109.1833,26.0,91,28,2.14,VN,1680890337
403,nabire,-3.3667,135.4833,23.78,91,100,1.57,ID,1680890601
404,husavik,66.0449,-17.3389,3.89,94,100,5.81,IS,1680890602
405,ampanihy,-24.7,44.75,24.67,83,72,1.25,MG,1680890603
406,morondava,-20.2833,44.2833,26.53,81,85,3.35,MG,1680890604
407,kizhinga,51.8462,109.9097,1.7,47,11,2.48,RU,1680890605
408,araouane,18.9048,-3.5265,31.46,12,80,3.27,ML,1680890606
409,suzun,53.7841,82.3116,-5.46,89,100,6.34,RU,1680890606
410,edgewood,39.4187,-76.2944,14.07,34,100,2.24,US,1680890501
411,faya,18.3851,42.4509,17.64,67,39,2.95,SA,1680890607
412,huambo,-12.7761,15.7392,18.51,75,100,0.69,AO,1680890608
413,jijiga,9.35,42.8,20.36,67,92,3.98,ET,1680890608
414,bairiki,1.3292,172.9752,27.5,80,68,8.62,KI,1680890609
415,ciudad bolivar,8.1222,-63.5497,36.16,25,82,4.5,VE,1680890609
416,vanimo,-2.6741,141.3028,24.73,89,100,1.84,PG,1680890610
417,omsukchan,62.5333,155.8,-22.68,100,65,1.71,RU,1680890610
418,mgachi,51.05,142.2667,-2.99,91,78,2.24,RU,1680890611
419,wanaka,-44.7,169.15,3.39,88,0,0.89,NZ,1680890457
420,kokoda,-8.8785,147.7407,24.03,96,100,0.47,PG,1680890612
421,kandi,11.1342,2.9386,36.85,20,91,0.82,BJ,1680890612
422,luanda,-8.8368,13.2343,28.0,78,40,3.09,AO,1680890613
423,wajir,1.7471,40.0573,29.21,55,60,4.18,KE,1680890613
424,salalah,17.0151,54.0924,27.02,74,13,2.41,OM,1680890614
425,lavrentiya,65.5833,-171.0,-24.35,88,100,3.03,RU,1680890614
426,ust-tsilma,65.441,52.1498,-0.23,92,83,4.31,RU,1680890615
427,kirkwall,58.9848,-2.9587,8.03,87,75,4.12,GB,1680890615
428,goderich,43.7501,-81.7165,2.73,59,46,7.06,CA,1680890616
429,yandyki,45.7691,47.1258,12.32,67,93,3.82,RU,1680890616
430,jinchang,38.4953,102.1739,5.75,31,100,1.74,CN,1680890617
431,anloga,5.7947,0.8973,28.64,77,88,6.46,GH,1680890617
432,novikovo,51.1537,37.8879,10.99,70,99,3.08,RU,1680890618
433,rumuruti,0.267,36.5389,17.34,83,53,4.39,KE,1680890618
434,dergachi,51.2328,48.7659,10.2,62,4,5.26,RU,1680890619
435,media luna,20.1419,-77.435,30.07,46,2,1.92,CU,1680890619
436,severo-yeniseyskiy,60.3725,93.0408,-24.16,97,100,2.6,RU,1680890620
437,north adams,42.7009,-73.1087,8.2,55,80,2.24,US,1680890621
438,baft,29.234,56.6057,12.05,44,76,2.47,IR,1680890621
439,edd,13.9297,41.6925,32.07,57,70,9.04,ER,1680890622
440,marawi,7.9986,124.2928,19.33,92,66,0.53,PH,1680890622
441,muli,2.9167,73.5667,28.25,68,46,1.65,MV,1680890623
442,mount isa,-20.7333,139.5,24.87,36,83,3.09,AU,1680890502
443,ritchie,-29.038,24.6028,21.68,45,73,3.25,ZA,1680890624
444,banjar,-8.19,114.9675,24.32,90,100,2.47,ID,1680890624
445,tura,25.5198,90.2201,22.05,45,46,1.64,IN,1680890624
446,batagay-alyta,67.8006,130.4114,-25.69,98,99,1.18,RU,1680890625
447,baghdad,33.3406,44.4009,22.95,38,0,1.03,IQ,1680890416
448,general pico,-35.6566,-63.7568,29.17,37,19,3.44,AR,1680890626
449,cacule,-14.5033,-42.2222,34.84,26,78,3.85,BR,1680890626
450,mustasaari,63.1142,21.6822,0.97,80,0,1.03,FI,1680890627
451,cayenne,4.9333,-52.3333,29.02,61,40,6.17,GF,1680890375
452,severobaykalsk,55.65,109.3167,-5.95,90,94,1.36,RU,1680890628
453,komsomolskiy,40.4272,71.7189,16.4,48,75,1.03,UZ,1680890629
454,beruwala,6.4788,79.9828,25.74,83,19,2.68,LK,1680890629
455,hun,29.1268,15.9477,21.69,27,87,7.0,LY,1680890630
456,ishigaki,24.3448,124.1572,19.26,73,100,13.19,JP,1680890444
457,mnogovershinnyy,53.9353,139.9242,-7.73,94,100,2.42,RU,1680890630
458,lazaro cardenas,17.9583,-102.2,29.44,46,0,3.89,MX,1680890631
459,puerto baquerizo moreno,-0.9,-89.6,26.27,77,100,2.71,EC,1680890632
460,kalmar,56.6616,16.3616,3.41,93,100,5.36,SE,1680890632
461,monteagudo,-19.8167,-63.9833,22.26,63,88,1.78,BO,1680890633
462,karratha,-20.7377,116.8463,28.73,60,11,3.7,AU,1680890473
463,christchurch,-43.5333,172.6333,11.08,82,100,1.54,NZ,1680890161
464,kandrian,-6.2167,149.55,24.81,91,100,4.39,PG,1680890634
465,chuguyevka,44.1653,133.8633,-1.95,57,33,0.7,RU,1680890635
466,sistranda,63.7256,8.834,6.98,70,88,4.99,NO,1680890635
467,baruun-urt,46.6806,113.2792,0.96,33,1,5.06,MN,1680890636
468,mabaruma,8.2,-59.7833,30.36,45,93,4.47,GY,1680890636
469,davila,18.4726,120.5763,25.99,83,35,9.73,PH,1680890637
470,brenham,30.1669,-96.3977,11.95,1,100,5.24,US,1680890637
471,paldiski,59.3567,24.0531,8.81,60,0,4.12,EE,1680890638
472,cabras,39.93,8.5314,11.29,76,4,1.89,IT,1680890638
473,mul,20.0667,79.6667,28.76,39,98,5.56,IN,1680890639
474,te anau,-45.4167,167.7167,3.32,94,12,0.43,NZ,1680890470
475,payo,-3.7508,103.6372,22.55,97,100,0.56,ID,1680890640
476,necochea,-38.5473,-58.7368,24.85,47,9,1.58,AR,1680890640
477,ixtapa,20.7,-105.2,24.57,69,0,3.6,MX,1680890641
478,lompoc,34.6391,-120.4579,18.25,67,48,2.68,US,1680890641
479,vaitape,-16.5167,-151.75,28.64,76,89,9.03,PF,1680890642
480,san cristobal,7.7669,-72.225,25.12,52,99,2.95,VE,1680890642
481,uyskoye,54.3775,60.0047,-3.32,46,0,3.13,RU,1680890643
482,venado tuerto,-33.7456,-61.9688,27.22,43,38,3.46,AR,1680890643
483,honiara,-9.4333,159.95,25.14,87,40,1.3,SB,1680890644
484,beyneu,45.3167,55.2,16.89,45,87,6.19,KZ,1680890644
485,palimbang,6.2106,124.1894,24.81,79,61,2.98,PH,1680890645
486,selma,36.5708,-119.6121,19.02,59,100,1.54,US,1680890646
487,liberal,37.0431,-100.921,17.08,15,0,8.75,US,1680890647
488,alasehir,38.3508,28.5172,10.78,77,30,1.39,TR,1680890647
489,ponta delgada,37.7333,-25.6667,12.4,76,40,5.14,PT,1680890546
490,bilma,18.6853,12.9164,34.25,10,64,3.91,NE,1680890648
491,bilibino,68.0546,166.4372,-26.8,98,42,2.34,RU,1680890649
492,olafsvik,64.8945,-23.7142,6.56,86,100,15.06,IS,1680890649
493,wakkanai,45.4094,141.6739,3.9,86,100,2.28,JP,1680890650
494,baglung,28.2719,83.5898,17.02,44,27,2.8,NP,1680890650
495,cartagena,10.3997,-75.5144,29.79,66,40,5.14,CO,1680890651
496,langsa,4.4683,97.9683,24.3,93,94,1.09,ID,1680890651
497,bangassou,4.7413,22.8184,24.24,74,95,0.85,CF,1680890652
498,santa isabel do rio negro,-0.4139,-65.0192,30.2,68,93,1.68,BR,1680890653
499,itarema,-2.9248,-39.9167,28.1,74,64,4.6,BR,1680890653
500,keningau,5.3378,116.1602,20.86,98,61,0.5,MY,1680890654
501,erzin,36.9559,36.2,12.18,86,24,0.71,TR,1680890654
502,zyryanka,65.75,150.85,-27.12,100,80,0.46,RU,1680890655
503,sisimiut,66.9395,-53.6735,-6.3,58,46,3.3,GL,1680890655
504,sitka,57.0531,-135.33,4.94,81,100,0.0,US,1680890656
505,saldanha,-33.0117,17.9442,16.28,84,97,8.5,ZA,1680890656
506,yulara,-25.2406,130.9889,17.18,44,6,3.56,AU,1680890657
507,krasnoselkup,65.7,82.4667,-12.02,95,100,5.26,RU,1680890658
508,yashkul,46.1711,45.3435,15.48,49,88,2.82,RU,1680890658
509,olavarria,-36.8927,-60.3225,25.79,37,2,2.19,AR,1680890658
510,awjilah,29.1081,21.2869,23.87,25,85,4.04,LY,1680890659
511,turtas,58.9417,69.1325,-13.77,91,25,1.89,RU,1680890660
512,blythe,33.6103,-114.5964,22.8,10,78,0.56,US,1680890660
513,medea,36.2642,2.7539,10.06,57,0,2.15,DZ,1680890661
514,rohatyn,49.409,24.6093,1.58,100,100,3.63,UA,1680890661
515,san carlos,9.6612,-68.5827,33.16,35,97,2.06,VE,1680890662
516,newport,51.5877,-2.9984,13.06,71,94,0.42,GB,1680890662
517,yongan,39.6957,113.6871,0.36,54,0,3.01,CN,1680890663
518,morant bay,17.8815,-76.4093,27.08,63,23,3.32,JM,1680890663
519,ulaangom,49.9811,92.0667,-5.78,84,98,0.68,MN,1680890664
520,caluquembe,-13.7833,14.6833,18.05,80,99,1.65,AO,1680890664
521,tarare,45.8976,4.4327,12.01,73,38,1.83,FR,1680890665
522,lujan,-34.5703,-59.105,27.79,44,0,0.89,AR,1680890665
523,aykhal,66.0,111.5,-31.54,98,44,5.46,RU,1680890665
524,quelimane,-17.8786,36.8883,22.3,81,15,1.86,MZ,1680890666
525,luwuk,-0.9516,122.7875,25.09,75,90,1.57,ID,1680890667
526,san buenaventura,27.0833,-101.5333,13.6,74,100,2.08,MX,1680890668
527,rancho veloz,22.8806,-80.3917,28.67,48,42,8.51,CU,1680890668
528,sur,22.5667,59.5289,26.11,65,0,4.03,OM,1680890669
529,basco,20.4487,121.9702,23.58,84,93,13.44,PH,1680890669
530,veisiejai,54.1,23.7,9.76,86,96,2.96,LT,1680890670
531,port macquarie,-31.4333,152.9167,14.94,79,17,3.4,AU,1680890670
532,gizo,-8.103,156.8419,27.36,75,99,1.28,SB,1680890672
533,la ronge,55.1001,-105.2842,0.01,86,23,5.56,CA,1680890672
534,cangzhou,38.3167,116.8667,7.36,39,0,4.39,CN,1680890673
535,gravdal,68.1214,13.5031,3.88,93,97,9.64,NO,1680890673
536,balkhash,46.844,74.9804,6.31,87,88,4.96,KZ,1680890674
537,sobolevo,54.4299,31.8996,9.3,73,100,3.67,RU,1680890674
538,wahiawa,21.5028,-158.0236,24.18,76,75,0.0,US,1680890675
539,grand gaube,-20.0064,57.6608,25.21,78,48,0.89,MU,1680890675
540,skjervoy,70.0311,20.9714,2.0,98,100,7.81,NO,1680890676
541,camara de lobos,32.6333,-16.9667,19.35,83,75,4.63,PT,1680890676
542,kailua,21.4022,-157.7394,25.99,77,75,4.63,US,1680890677
543,hay river,60.8156,-115.7999,3.09,97,89,5.47,CA,1680890677
544,sorland,67.667,12.6934,4.92,95,97,11.28,NO,1680890678
545,neiafu,-18.65,-173.9833,24.38,94,75,0.0,TO,1680890678
546,pasir mas,6.0493,102.1399,24.83,88,46,0.19,MY,1680890678
547,galanta,48.19,17.7275,7.77,82,100,2.12,SK,1680890679
548,mackay,-21.15,149.2,24.82,91,42,5.32,AU,1680890679
549,villa carlos paz,-31.4241,-64.4978,26.88,36,1,4.02,AR,1680890680
550,cam ranh,11.9214,109.1591,25.98,89,20,0.0,VN,1680890680
551,chalmette,29.9427,-89.9634,23.0,89,100,3.6,US,1680890681
552,batemans bay,-35.7167,150.1833,12.45,84,52,2.65,AU,1680890681
553,varca,15.2167,73.9167,28.0,83,40,1.03,IN,1680890682
554,santa vitoria do palmar,-33.5189,-53.3681,22.66,55,98,4.18,BR,1680890682
555,sioux lookout,50.1001,-91.917,-0.8,77,98,2.26,CA,1680890683
556,san luis,-33.295,-66.3356,28.48,29,11,1.27,AR,1680890683
557,santa cruz de la palma,28.6835,-17.7642,20.08,60,75,2.06,ES,1680890684
558,pelotas,-31.7719,-52.3425,24.01,64,75,3.6,BR,1680890685
559,safaga,26.7292,33.9365,27.26,27,0,2.32,EG,1680890685
